City_ID,City,Lat,Lng,Max Temp,Humidity,Cloudiness,Wind Speed,Country,Date
0,cabo san lucas,22.8909,-109.9124,24.91,72,0,3.13,MX,1682013600
1,arraial do cabo,-22.9661,-42.0278,25.92,65,0,8.16,BR,1682013600
2,papatowai,-46.5619,169.4708,11.77,85,100,1.45,NZ,1682013600
3,roma,43.2128,-75.4557,13.53,49,0,1.65,US,1682013600
4,nova sintra,14.8667,-24.7167,19.53,79,75,11.02,CV,1682013600
5,port-aux-francais,-49.35,70.2167,6.37,72,100,13.36,TF,1682013600
6,paciran,-6.8767,112.3761,26.12,86,100,2.02,ID,1682013600
7,hadibu,12.65,54.0333,28.51,70,38,2.64,YE,1682013600
8,blackmans bay,-43.0167,147.3167,14.06,79,100,3.15,AU,1682013600
9,grytviken,-54.2811,-36.5092,1.84,99,100,1.65,GS,1682013600
10,puerto ayora,-0.7393,-90.3518,28.08,87,89,3.42,EC,1682013600
11,kodiak,57.79,-152.4072,3.73,60,0,3.08,US,1682013600
12,porto murtinho,-21.6989,-57.8825,26.48,40,0,3.01,BR,1682013600
13,port elizabeth,-33.918,25.5701,16.84,80,20,14.21,ZA,1682013600
14,rapar,23.5667,70.6333,27.6,54,49,6.64,IN,1682013600
15,egilsstadir,65.2653,-14.3948,14.95,33,0,2.72,IS,1682013600
16,invercargill,-46.4,168.35,11.68,82,95,2.07,NZ,1682013600
17,adamstown,-25.066,-130.1015,24.08,78,100,3.07,PN,1682013600
18,iskateley,67.6803,53.1512,-3.59,95,98,3.49,RU,1682013600
19,aykhal,66.0,111.5,-16.25,100,64,1.04,RU,1682013600
20,zalesovo,53.9939,84.7431,-5.4,94,84,1.97,RU,1682013600
21,dudinka,69.4058,86.1778,-11.9,98,98,3.41,RU,1682013600
22,mount isa,-20.7333,139.5,20.56,45,0,8.2,AU,1682013600
23,manay,7.215,126.5397,25.81,83,75,1.53,PH,1682013600
24,waitangi,-43.9535,-176.5597,16.01,95,89,8.94,NZ,1682013600
25,codrington,-38.2667,141.9667,13.19,93,98,2.99,AU,1682013600
26,zhezqazghan,47.7833,67.7667,9.06,46,74,4.8,KZ,1682013600
27,edinburgh of the seven seas,-37.0676,-12.3116,19.26,97,100,8.01,SH,1682013600
28,kaspiyskiy,45.3929,47.3707,13.43,63,99,8.94,RU,1682013600
29,cole harbour,44.6724,-63.4751,11.11,55,75,4.52,CA,1682013600
30,monte patria,-30.6919,-70.9467,26.29,21,72,3.7,CL,1682013600
31,chonchi,-42.6128,-73.8092,16.2,68,100,0.56,CL,1682013600
32,puerto natales,-51.7236,-72.4875,11.25,76,75,1.91,CL,1682013600
33,whitehorse,60.7161,-135.0538,1.09,86,75,2.19,CA,1682013600
34,herzberg,51.6869,13.2202,13.99,67,75,4.0,DE,1682013600
35,bethel,41.3712,-73.414,15.98,43,0,2.71,US,1682013600
36,port lincoln,-34.7333,135.8667,15.5,80,61,1.81,AU,1682013600
37,lisala,2.15,21.5167,22.89,97,97,2.19,CD,1682013600
38,atafu village,-8.5421,-172.5159,27.77,76,86,1.78,TK,1682013600
39,la ronge,55.1001,-105.2842,-0.54,55,75,5.33,CA,1682013600
40,arroyo,41.6096,-4.7969,22.84,26,0,4.25,ES,1682013600
41,mezhdurechenskiy,59.6,65.9333,5.08,72,75,3.96,RU,1682013600
42,nemuro,43.3236,145.575,6.47,89,89,8.77,JP,1682013600
43,margaret river,-33.95,115.0667,13.97,56,17,2.71,AU,1682013600
44,yellowknife,62.456,-114.3525,1.35,55,0,3.85,CA,1682013600
45,avarua,-21.2078,-159.775,25.53,78,100,8.59,CK,1682013600
46,zmeinogorsk,51.1567,82.195,-9.61,89,4,2.14,RU,1682013600
47,arbroath,56.5632,-2.5874,10.88,76,1,5.2,GB,1682013600
48,cascais,38.6979,-9.4215,18.13,68,20,3.59,PT,1682013600
49,al mishkhab,31.8042,44.4911,31.06,18,100,3.48,IQ,1682013600
50,ribeira grande,38.5167,-28.7,15.22,72,40,10.84,PT,1682013600
51,albany,42.6001,-73.9662,15.29,46,21,2.6,US,1682013600
52,robertsport,6.7533,-11.3686,28.28,76,100,5.7,LR,1682013600
53,port mathurin,-19.6833,63.4167,26.28,73,9,9.31,MU,1682013600
54,keflavik,64.0049,-22.5624,11.24,71,75,5.09,IS,1682013600
55,lerwick,60.1545,-1.1494,9.24,79,10,4.0,GB,1682013600
56,vorgashor,67.5833,63.95,-2.21,96,99,3.28,RU,1682013600
57,ust-nera,64.5667,143.2,-10.35,97,100,3.31,RU,1682013600
58,laguna,38.421,-121.4238,15.07,48,0,4.49,US,1682013600
59,boyolangu,-8.1181,111.8935,24.52,92,50,0.55,ID,1682013600
60,argo,37.6333,22.7333,18.77,77,52,0.91,GR,1682013600
61,kalmunai,7.4167,81.8167,27.17,81,64,4.38,LK,1682013600
62,badger,64.8,-147.5333,-0.42,71,0,0.69,US,1682013600
63,afaahiti,-17.75,-149.2833,26.7,83,100,9.9,PF,1682013600
64,punta arenas,-53.15,-70.9167,6.98,87,100,8.65,CL,1682013600
65,kapa'a,22.0752,-159.319,22.7,94,20,1.53,US,1682013600
66,nguigmi,14.2495,13.1092,33.74,16,6,2.55,NE,1682013600
67,patong,7.8961,98.2966,29.08,76,93,4.86,TH,1682013600
68,qaqortoq,60.7167,-46.0333,2.79,77,33,1.62,GL,1682013600
69,khandyga,62.6667,135.6,-10.57,97,79,0.53,RU,1682013600
70,al bardiyah,31.7561,25.0865,16.67,64,4,2.92,LY,1682013600
71,namibe,-15.1961,12.1522,24.51,77,30,3.85,AO,1682013600
72,florida,28.7505,-82.5001,30.72,52,0,6.37,US,1682013600
73,kristinestad,62.2743,21.376,2.42,98,82,2.83,FI,1682013600
74,homer,59.6425,-151.5483,4.53,76,0,0.97,US,1682013600
75,stanley,54.868,-1.6985,9.78,70,20,5.13,GB,1682013600
76,habay-la-vieille,49.7233,5.62,7.54,71,100,5.44,BE,1682013600
77,muisne,0.6,-80.0333,28.13,74,100,3.22,EC,1682013600
78,dashitou,43.3067,128.5114,2.11,19,17,7.56,CN,1682013600
79,yeppoon,-23.1333,150.7333,20.42,76,0,5.82,AU,1682013600
80,i-n-salah,27.1935,2.4607,31.3,13,0,5.68,DZ,1682013600
81,lebu,-37.6167,-73.65,16.2,74,43,4.91,CL,1682013600
82,college,64.8569,-147.8028,-0.24,67,20,0.77,US,1682013600
83,hawaiian paradise park,19.5933,-154.9731,24.11,87,0,1.3,US,1682013600
84,saint-joseph,-21.3667,55.6167,25.76,82,30,6.01,RE,1682013600
85,saint-philippe,-21.3585,55.7679,26.77,85,42,6.4,RE,1682013600
86,daru,-9.0763,143.2092,25.97,86,97,4.55,PG,1682013600
87,vrangel',42.7297,133.0839,6.94,30,82,10.13,RU,1682013600
88,urmary,55.6789,47.944,9.65,64,100,0.23,RU,1682013600
89,birjand,32.8663,59.2211,18.26,10,0,2.57,IR,1682013600
90,yinchuan,38.4681,106.2731,8.14,55,100,4.24,CN,1682013600
91,mount pearl,47.5166,-52.7813,2.04,95,100,6.43,CA,1682013600
92,tiksi,71.6872,128.8694,-22.77,100,100,1.55,RU,1682013600
93,georgetown,5.4112,100.3354,26.97,89,20,0.76,MY,1682013600
94,iwanai,42.9744,140.5089,7.16,54,82,7.32,JP,1682013600
95,anadyr,64.75,177.4833,-12.22,92,0,1.13,RU,1682013600
96,tolanaro,-25.0319,46.9987,24.17,88,75,5.49,MG,1682013600
97,iqaluit,63.7506,-68.5145,-2.04,85,100,10.41,CA,1682013600
98,belomorsk,64.5232,34.7668,2.13,100,100,2.16,RU,1682013600
99,nagqu,31.5,92.0,3.78,38,99,7.08,CN,1682013600
100,talnakh,69.4865,88.3972,-12.42,95,100,3.17,RU,1682013600
101,ushuaia,-54.8,-68.3,8.81,46,75,2.87,AR,1682013600
102,carnarvon,-24.8667,113.6333,23.52,41,52,4.8,AU,1682013600
103,andreapol',56.6513,32.2664,7.53,63,59,2.91,RU,1682013600
104,khandud,36.9513,72.318,-3.08,78,99,0.81,AF,1682013600
105,aioun,16.6614,-9.6149,38.5,10,14,5.3,MR,1682013600
106,korla,41.7597,86.1469,12.04,39,79,1.27,CN,1682013600
107,howard springs,-12.497,131.047,23.93,93,89,3.47,AU,1682013600
108,kununurra,-15.7667,128.7333,25.99,44,39,5.32,AU,1682013600
109,yamada,39.4667,141.95,13.44,72,94,3.77,JP,1682013600
110,wailua homesteads,22.0669,-159.378,21.93,94,20,1.3,US,1682013600
111,shohimardon,39.9839,71.8028,8.43,66,56,1.36,UZ,1682013600
112,st. john's,47.5649,-52.7093,2.22,96,100,7.65,CA,1682013600
113,isafjordur,66.0755,-23.124,7.65,82,97,4.5,IS,1682013600
114,marakkanam,12.2,79.95,28.93,84,3,7.04,IN,1682013600
115,olonkinbyen,70.9221,-8.7187,0.83,99,100,1.16,SJ,1682013600
116,vadso,70.0744,29.7487,4.37,87,75,13.27,NO,1682013600
117,flying fish cove,-10.4217,105.6791,27.18,73,99,7.08,CX,1682013600
118,kavaratti,10.5669,72.642,28.76,72,35,4.93,IN,1682013600
119,enewetak,11.3474,162.3373,25.38,89,100,9.71,MH,1682013600
120,kupang,-10.1667,123.5833,22.41,74,22,4.15,ID,1682013600
121,sinabang,2.4803,96.3801,26.98,80,90,2.61,ID,1682013600
122,tidjikja,18.5564,-11.4271,35.24,10,19,8.93,MR,1682013600
123,zafra,38.4167,-6.4167,24.34,23,20,3.32,ES,1682013600
124,alice springs,-23.7,133.8833,13.24,87,0,5.92,AU,1682013600
125,longyearbyen,78.2186,15.6401,-12.09,61,20,2.88,SJ,1682013600
126,port angeles,48.1181,-123.4307,7.21,69,75,2.32,US,1682013600
127,two rivers,44.1539,-87.5693,8.33,83,40,6.79,US,1682013600
128,kloulklubed,7.0419,134.2556,28.38,77,42,4.22,PW,1682013600
129,ust'-ordynskiy,52.805,104.7508,-6.2,52,100,2.13,RU,1682013600
130,santa terezinha,-29.9002,-50.0904,20.51,50,0,6.77,BR,1682013600
131,taroa,8.7058,171.2275,27.07,82,67,7.68,MH,1682013600
132,tralee,52.2704,-9.7026,14.14,47,0,5.89,IE,1682013600
133,imperatriz,-5.5264,-47.4917,32.03,74,75,1.27,BR,1682013600
134,oranjemund,-28.55,16.4333,14.47,90,87,6.8,NA,1682013600
135,madera,37.1666,-119.8343,15.63,47,15,2.1,US,1682013600
136,ambalangoda,6.2355,80.0538,27.91,76,91,2.08,LK,1682013600
137,east london,-33.0153,27.9116,19.52,77,20,10.3,ZA,1682013600
138,ilulissat,69.2167,-51.1,-2.99,54,20,2.63,GL,1682013600
139,west island,-12.1568,96.8225,27.29,83,75,8.33,CC,1682013600
140,kingston,17.997,-76.7936,29.94,76,10,2.92,JM,1682013600
141,guiglo,6.5456,-7.4966,29.2,62,92,2.1,CI,1682013600
142,sisimiut,66.9395,-53.6735,-0.43,67,93,1.85,GL,1682013600
143,urengoy,65.9667,78.3667,-11.44,98,77,2.4,RU,1682013600
144,rongelap,11.1635,166.8941,25.25,87,100,5.28,MH,1682013600
145,remire-montjoly,4.9167,-52.2667,29.02,74,75,3.99,GF,1682013600
146,katabu,-4.9333,122.5167,23.91,95,100,1.32,ID,1682013600
147,al faw,29.9776,48.4741,31.0,30,0,3.61,IQ,1682013600
148,shetpe,44.1667,52.1167,17.77,13,92,9.15,KZ,1682013600
149,inarajan village,13.2736,144.7484,26.65,82,20,6.91,GU,1682013600
150,bilibino,68.0546,166.4372,-11.62,88,14,1.86,RU,1682013600
151,kidal,18.4411,1.4078,35.64,8,2,1.35,ML,1682013600
152,huilong,31.8111,121.655,13.9,93,17,3.84,CN,1682013600
153,alagir,43.0422,44.2222,13.99,84,81,2.01,RU,1682013600
154,smithers,54.7804,-127.1743,5.73,80,40,2.8,CA,1682013600
155,lazaro cardenas,17.9583,-102.2,29.31,59,27,4.67,MX,1682013600
156,saldanha,-33.0117,17.9442,15.03,71,56,6.79,ZA,1682013600
157,tura,25.5198,90.2201,24.66,62,4,4.94,IN,1682013600
158,spring creek,40.7266,-115.5859,3.29,38,47,3.39,US,1682013600
159,petropavlovsk-kamchatsky,53.0452,158.6483,-0.67,93,75,1.29,RU,1682013600
160,saipan,15.1355,145.701,26.79,100,100,8.84,MP,1682013600
161,tadmur,34.5608,38.2805,17.41,39,0,7.9,SY,1682013600
162,fair oaks ranch,29.7458,-98.6434,26.91,77,89,5.72,US,1682013600
163,hamilton,39.1834,-84.5333,25.45,39,99,5.97,US,1682013600
164,howrah,22.5892,88.3103,31.0,84,40,3.89,IN,1682013600
165,kone,-21.0595,164.8658,21.49,90,5,0.66,NC,1682013600
166,bredasdorp,-34.5322,20.0403,13.1,68,66,6.0,ZA,1682013600
167,horta,38.5333,-28.6333,15.57,70,40,10.76,PT,1682013600
168,jamestown,42.097,-79.2353,22.76,42,0,4.59,US,1682013600
169,rabo de peixe,37.8,-25.5833,15.73,63,40,9.04,PT,1682013600
170,hobyo,5.3505,48.5268,28.96,64,18,6.03,SO,1682013600
171,naze,28.3667,129.4833,20.51,94,100,0.77,JP,1682013600
172,nadym,65.5333,72.5167,-2.36,95,100,4.03,RU,1682013600
173,saint-louis,16.3333,-15.0,39.8,12,11,8.12,SN,1682013600
174,dakhla,23.6848,-15.958,22.01,64,0,5.77,EH,1682013600
175,yelizovo,53.1873,158.3805,0.06,92,75,0.66,RU,1682013600
176,carandai,-20.9536,-43.8064,22.02,56,3,4.01,BR,1682013600
177,porto novo,6.4965,2.6036,30.9,75,80,5.25,BJ,1682013600
178,pasco,28.292,-82.4165,30.14,46,1,5.75,US,1682013600
179,strathfieldsaye,-36.8,144.3667,10.11,54,6,2.44,AU,1682013600
180,puerto baquerizo moreno,-0.9,-89.6,29.55,74,20,3.14,EC,1682013600
181,country club,25.9482,-80.317,27.56,60,40,5.97,US,1682013600
182,forecariah,9.4306,-13.0881,30.97,56,78,4.42,GN,1682013600
183,port sudan,19.6175,37.2164,26.99,73,36,2.46,SD,1682013600
184,susuman,62.7833,148.1667,-10.24,94,100,2.32,RU,1682013600
185,ilebo,-4.3167,20.5833,23.96,83,53,0.86,CD,1682013600
186,vila franca do campo,37.7167,-25.4333,16.23,65,14,7.82,PT,1682013600
187,katsuura,35.1333,140.3,17.29,86,68,6.76,JP,1682013600
188,san patricio,28.017,-97.5169,28.11,66,85,8.67,US,1682013600
189,tazovsky,67.4667,78.7,-13.87,99,71,2.78,RU,1682013600
190,colonia,50.9333,6.95,12.4,44,20,3.82,DE,1682013600
191,mana,5.6592,-53.7767,27.34,81,93,4.62,GF,1682013600
192,choibalsan,48.0667,114.5,-5.11,30,17,2.31,MN,1682013600
193,cova figueira,14.8905,-24.2934,20.95,76,78,9.45,CV,1682013600
194,hermanus,-34.4187,19.2345,14.33,68,65,7.2,ZA,1682013600
195,uddevalla,58.3478,11.9424,13.14,47,23,1.82,SE,1682013600
196,vinita,36.6387,-95.1541,19.82,62,83,5.49,US,1682013600
197,vallenar,-28.5708,-70.7581,23.05,41,100,2.88,CL,1682013600
198,phan rang-thap cham,11.5667,108.9833,25.69,89,94,2.03,VN,1682013600
199,red oak,32.5176,-96.8044,26.47,69,75,7.54,US,1682013600
200,toliara,-23.35,43.6667,24.62,79,28,1.51,MG,1682013600
201,trujillo,-8.116,-79.03,25.98,69,40,3.18,PE,1682013600
202,rondonopolis,-16.4708,-54.6356,28.64,39,28,3.43,BR,1682013600
203,suances,43.4334,-4.0434,16.2,80,20,1.01,ES,1682013600
204,kaiyuan,23.6977,103.3037,22.04,32,0,2.18,CN,1682013600
205,hammerfest,70.6634,23.6821,5.25,87,75,11.63,NO,1682013600
206,kapuskasing,49.4169,-82.4331,2.86,44,75,2.39,CA,1682013600
207,nantucket,41.2835,-70.0995,10.41,48,0,1.51,US,1682013600
208,zavetnoye,47.1194,43.8903,13.69,31,100,7.0,RU,1682013600
209,nuku'alofa,-21.1333,-175.2,25.84,78,20,11.28,TO,1682013600
210,shpola,49.0069,31.3947,7.19,92,100,6.69,UA,1682013600
211,date,42.4681,140.8681,7.37,63,63,5.96,JP,1682013600
212,pasighat,28.0667,95.3333,22.85,74,78,3.56,IN,1682013600
213,vorkuta,67.5,64.0,-2.41,98,99,3.27,RU,1682013600
214,saacow,1.6279,42.4407,29.03,65,94,3.98,SO,1682013600
215,puno,-15.8333,-70.0333,11.88,53,100,2.06,PE,1682013600
216,neryungri,56.6709,124.6491,-7.14,90,99,5.82,RU,1682013600
217,leava,-14.3,-178.1667,27.86,78,27,4.44,WF,1682013600
218,alpine,32.835,-116.7664,21.94,44,0,0.9,US,1682013600
219,belmonte,-15.8631,-38.8828,29.51,76,18,5.48,BR,1682013600
220,okha,53.5739,142.9478,-0.94,82,100,7.34,RU,1682013600
221,port macquarie,-31.4333,152.9167,17.91,81,97,6.76,AU,1682013600
222,mejit,10.2753,170.8646,26.46,82,98,7.67,MH,1682013600
223,haiku-pauwela,20.9219,-156.3051,22.78,83,100,1.52,US,1682013600
224,miyaly,48.8844,53.7836,11.93,32,75,4.56,KZ,1682013600
225,pacocha,-17.5833,-71.3333,23.08,78,0,1.97,PE,1682013600
226,ebon,4.582,168.6964,28.04,75,82,4.3,MH,1682013600
227,green river,41.5286,-109.4662,2.33,46,87,9.1,US,1682013600
228,hinton,53.4001,-117.5857,4.15,65,99,3.54,CA,1682013600
229,ola,59.5833,151.2833,1.75,82,100,10.05,RU,1682013600
230,thompson,55.7435,-97.8558,-1.02,64,75,4.41,CA,1682013600
231,nar'yan-mar,67.6713,53.087,-3.47,95,98,3.51,RU,1682013600
232,beni mellal,32.3373,-6.3498,23.79,46,40,3.47,MA,1682013600
233,cidreira,-30.1811,-50.2056,20.11,51,9,6.7,BR,1682013600
234,mount gambier,-37.8333,140.7667,12.61,96,89,1.47,AU,1682013600
235,aginskoye,51.1,114.53,-8.68,48,1,7.16,RU,1682013600
236,ketchikan,55.3422,-131.6461,7.82,81,20,3.73,US,1682013600
237,oroqen zizhiqi,50.5667,123.7167,-2.26,78,99,5.38,CN,1682013600
238,praia,14.9215,-23.5087,25.3,57,75,8.52,CV,1682013600
239,lompoc,34.6391,-120.4579,18.86,50,40,6.56,US,1682013600
240,san antonio de pale,-1.4014,5.6325,27.42,79,87,5.07,GQ,1682013600
241,mont-laurier,46.5501,-75.4993,7.82,46,42,2.53,CA,1682013600
242,kapoeta,4.7717,33.5903,31.53,36,94,4.46,SS,1682013600
243,sao joao da barra,-21.6403,-41.0511,28.05,67,84,8.86,BR,1682013600
244,ancud,-41.8697,-73.8203,13.24,85,100,2.72,CL,1682013600
245,panama city beach,30.1766,-85.8055,25.98,63,0,6.52,US,1682013600
246,hit,33.6416,42.8251,26.92,34,82,2.14,IQ,1682013600
247,chapaev,50.2,51.1667,11.13,41,99,2.85,KZ,1682013600
248,kaman,27.65,77.2667,28.45,29,98,2.4,IN,1682013600
249,saudarkrokur,65.7461,-19.6394,12.12,52,15,6.34,IS,1682013600
250,atherton,53.5237,-2.4935,13.93,36,2,5.37,GB,1682013600
251,isangel,-19.55,169.2667,24.81,84,21,2.04,VU,1682013600
252,newman,37.3138,-121.0208,16.59,45,5,5.08,US,1682013600
253,chandbali,20.7833,86.7667,30.34,50,72,3.53,IN,1682013600
254,luderitz,-26.6481,15.1594,17.72,66,29,10.67,NA,1682013600
255,international falls,48.6011,-93.411,0.17,79,100,6.78,US,1682013600
256,corner brook,48.9667,-57.9484,5.09,99,100,2.17,CA,1682013600
257,penon blanco,24.7897,-104.0369,29.17,13,100,5.28,MX,1682013600
258,katsuren-haebaru,26.3369,127.8719,23.19,92,75,6.3,JP,1682013600
259,melfi,40.9965,15.6514,12.88,90,9,0.95,IT,1682013600
260,uturoa,-16.7333,-151.4333,28.26,78,92,8.01,PF,1682013600
261,wau,7.7029,27.9953,35.21,21,77,0.38,SS,1682013600
262,mirny,62.5353,113.9611,-15.28,97,98,1.67,RU,1682013600
263,sao vicente,-23.9631,-46.3919,24.98,44,0,4.61,BR,1682013600
264,ciudad lazaro cardenas,17.9583,-102.2,29.31,59,27,4.67,MX,1682013600
265,carutapera,-1.195,-46.02,27.76,76,94,1.1,BR,1682013600
266,east ballina,-28.8667,153.5833,20.95,69,57,7.47,AU,1682013600
267,ugoofaaru,5.6667,73.0,28.4,68,61,1.31,MV,1682013600
268,alappuzha,9.49,76.3264,29.44,76,24,1.19,IN,1682013600
269,vryburg,-26.9566,24.7284,19.77,42,71,6.02,ZA,1682013600
270,camana,-16.6228,-72.7111,23.6,64,19,3.41,PE,1682013600
271,udachny,66.4167,112.4,-18.32,100,85,1.45,RU,1682013600
272,jamsa,61.8642,25.19,14.4,100,98,0.8,FI,1682013600
273,beryozovsky,56.9083,60.8019,1.53,100,0,1.16,RU,1682013600
274,fada,9.5667,8.3,30.59,34,99,2.08,NG,1682013600
275,rybnoye,54.7256,39.5119,10.09,55,87,3.0,RU,1682013600
276,chiredzi,-21.05,31.6667,21.17,43,0,2.67,ZW,1682013600
277,weno,7.4515,151.8468,28.28,89,75,2.86,FM,1682013600
278,bel ombre,-4.6167,55.4167,28.91,70,40,7.32,SC,1682013600
279,burutu,5.3509,5.5076,26.93,79,86,3.06,NG,1682013600
280,kondopoga,62.2057,34.2614,10.82,98,100,2.28,RU,1682013600
281,bikenibeu village,1.3673,173.1241,27.93,89,40,3.68,KI,1682013600
282,bamboo flat,11.7,92.7167,27.13,78,6,2.99,IN,1682013600
283,amasra,41.7463,32.3863,14.03,92,47,3.65,TR,1682013600
284,kamenka,51.3223,42.7678,11.54,53,100,2.95,RU,1682013600
285,abalak,58.1286,68.5944,1.84,68,30,2.64,RU,1682013600
286,lahan,26.7296,86.4951,29.95,17,27,1.93,NP,1682013600
287,lorengau,-2.0226,147.2712,26.85,83,100,1.76,PG,1682013600
288,colombo,6.9319,79.8478,29.97,81,25,3.38,LK,1682013600
289,taulaga,-11.0553,-171.0883,28.24,72,30,4.85,AS,1682013600
290,awjilah,29.1081,21.2869,24.7,21,22,4.47,LY,1682013600
291,sanming,26.2486,117.6186,21.07,95,41,0.55,CN,1682013600
292,pandan,14.0453,124.1694,26.08,88,46,3.14,PH,1682013600
293,portland,45.5234,-122.6762,6.02,88,100,1.57,US,1682013600
294,mombetsu,44.3525,143.3525,6.3,73,98,7.47,JP,1682013600
295,fedorovskiy,45.0972,40.9517,11.54,98,100,0.52,RU,1682013600
296,shengli,37.4564,118.4856,14.2,22,100,4.54,CN,1682013600
297,otacilio costa,-27.4831,-50.1219,18.11,38,0,2.04,BR,1682013600
298,berezovyy,51.6667,135.7,-3.18,95,100,3.49,RU,1682013600
299,freetown,8.484,-13.2299,29.84,70,40,5.42,SL,1682013600
300,manjeshvar,12.7,74.8833,29.66,79,15,1.52,IN,1682013600
301,opuwo,-18.0607,13.84,20.51,65,100,2.61,NA,1682013600
302,kutum,14.2,24.6667,28.89,11,0,3.55,SD,1682013600
303,douz,33.4663,9.0203,21.68,57,67,11.46,TN,1682013600
304,lapovo,44.1842,21.0973,15.78,72,66,1.55,RS,1682013600
305,orzysz,53.8097,21.9481,11.25,70,50,4.03,PL,1682013600
306,machali,-34.1833,-70.6667,27.26,28,29,3.05,CL,1682013600
307,harper,4.375,-7.7169,27.14,81,100,2.53,LR,1682013600
308,kirakira,-10.4544,161.9205,25.91,83,59,1.15,SB,1682013600
309,kyzyl-suu,42.3414,78.0056,3.75,63,24,2.44,KG,1682013600
310,palmer,42.1584,-72.3287,16.94,40,20,3.62,US,1682013600
311,kenai,60.5544,-151.2583,1.34,76,0,2.09,US,1682013600
312,las tablas,7.7667,-80.2833,31.95,47,12,4.95,PA,1682013600
313,port alfred,-33.5906,26.891,18.99,68,99,14.41,ZA,1682013600
314,sao felix do xingu,-6.6447,-51.995,31.13,61,45,1.64,BR,1682013600
315,manta,-0.95,-80.7333,28.88,70,40,1.88,EC,1682013600
316,margate,51.3813,1.3862,8.07,77,70,9.48,GB,1682013600
317,revda,56.801,59.9303,2.55,90,55,0.96,RU,1682013600
318,ouani,-12.1322,44.4258,27.51,81,30,3.02,KM,1682013600
319,elko,41.0002,-115.5012,3.87,43,31,4.44,US,1682013600
320,cabedelo,-6.9811,-34.8339,31.37,66,80,3.01,BR,1682013600
321,taltal,-25.4,-70.4833,19.65,76,64,2.58,CL,1682013600
322,fort st. john,56.2499,-120.8529,1.0,80,100,3.35,CA,1682013600
323,mahina,-17.5065,-149.489,27.87,78,75,7.74,PF,1682013600
324,labasa,-16.4167,179.3833,24.48,92,43,2.82,FJ,1682013600
325,lashio,22.9333,97.75,22.04,30,3,0.41,MM,1682013600
326,upington,-28.4478,21.2561,23.21,38,20,5.9,ZA,1682013600
327,zhangjiakou,40.81,114.8794,6.76,48,100,1.21,CN,1682013600
328,zaozersk,69.4005,32.4476,2.98,99,100,10.72,RU,1682013600
329,plainview,40.7765,-73.4673,15.25,44,0,1.9,US,1682013600
330,blama,7.8736,-11.3433,31.36,59,94,2.99,SL,1682013600
331,kristinehamn,59.3098,14.1081,15.31,54,23,1.61,SE,1682013600
332,broome,42.2506,-75.833,15.23,54,75,0.89,US,1682013600
333,trairi,-3.2778,-39.2689,29.1,70,92,3.43,BR,1682013600
334,pisco,-13.7,-76.2167,25.03,65,0,3.44,PE,1682013600
335,yatou,37.15,122.3833,10.9,41,3,9.12,CN,1682013600
336,itaituba,-4.2761,-55.9836,34.09,59,75,1.14,BR,1682013600
337,constantia,44.1833,28.65,11.38,85,98,5.25,RO,1682013600
338,emerald,-23.5333,148.1667,18.16,75,8,2.59,AU,1682013600
339,midvagur,62.0511,-7.1939,10.46,76,7,2.46,FO,1682013600
340,nikolayevsk-on-amure,53.1406,140.73,-1.8,96,100,3.88,RU,1682013600
341,kolosovka,56.4678,73.611,0.56,59,30,3.52,RU,1682013600
342,vodnyy,63.5046,53.4095,0.64,98,100,2.66,RU,1682013600
343,labytnangi,66.6572,66.4183,-2.1,93,99,3.2,RU,1682013600
344,tymovskoye,50.8456,142.655,0.07,99,100,1.31,RU,1682013600
345,mega,4.05,38.3,17.03,78,61,2.56,ET,1682013600
346,leh,34.1667,77.5833,-2.02,73,82,1.31,IN,1682013600
347,raja,8.4596,25.678,32.4,20,62,1.84,SS,1682013600
348,kiunga,-6.1219,141.2906,22.49,100,100,0.26,PG,1682013600
349,selfoss,63.9331,-20.9971,9.54,68,32,3.34,IS,1682013600
350,xapuri,-10.6517,-68.5044,22.34,97,100,2.3,BR,1682013600
351,el calafate,-50.3408,-72.2768,10.81,69,40,3.18,AR,1682013600
352,altai,46.3722,96.2583,-4.98,33,17,1.77,MN,1682013600
353,kingaroy,-26.5333,151.8333,13.43,77,2,4.12,AU,1682013600
354,siwa oasis,29.2041,25.5195,23.81,19,2,3.43,EG,1682013600
355,mainpuri,27.2333,79.0167,27.86,33,89,2.62,IN,1682013600
356,semera,11.501,41.201,30.79,45,17,7.88,ET,1682013600
357,alesund,62.4723,6.1549,10.23,80,20,3.16,NO,1682013600
358,blagoveshchensk,50.2667,127.5333,1.34,40,20,7.43,RU,1682013600
359,san mariano,7.5,126.0,23.82,96,90,0.29,PH,1682013600
360,rasshevatskaya,45.5748,41.035,12.08,97,100,1.58,RU,1682013600
361,happy valley-goose bay,53.3168,-60.3315,6.17,70,75,2.54,CA,1682013600
362,el colomo,19.05,-104.25,29.29,55,15,4.02,MX,1682013600
363,laramie,41.3114,-105.5911,0.58,30,20,12.74,US,1682013600
364,okhotsk,59.3833,143.3,-2.66,87,100,3.63,RU,1682013600
365,cherdyn',60.403,56.4787,0.83,96,93,1.35,RU,1682013600
366,mata-utu,-13.2816,-176.1745,28.12,78,27,6.18,WF,1682013600
367,vallegrande,-18.4897,-64.1069,21.82,27,0,1.19,BO,1682013600
368,bethanie,-26.4833,17.15,16.29,64,44,7.21,NA,1682013600
369,natchez,31.5604,-91.4032,27.46,57,40,5.57,US,1682013600
370,yeniseysk,58.4497,92.1703,-9.27,97,93,0.77,RU,1682013600
371,kingscliff,-28.2667,153.5667,20.23,68,40,6.2,AU,1682013600
372,kristiansund,63.1115,7.732,11.36,62,20,3.47,NO,1682013600
373,talakan,50.3167,130.3667,-0.29,92,99,5.34,RU,1682013600
374,caetite,-14.0694,-42.475,28.08,51,42,0.9,BR,1682013600
375,minas de marcona,-15.2119,-75.1103,22.96,55,2,3.54,PE,1682013600
376,metlili chaamba,32.2667,3.6333,31.52,10,5,3.73,DZ,1682013600
377,kulebaki,55.4133,42.5325,8.87,68,65,2.08,RU,1682013600
378,mili,6.0815,171.735,27.73,77,100,4.78,MH,1682013600
379,priargunsk,50.3691,119.1012,-2.46,45,99,7.64,RU,1682013600
380,pikalevo,59.5183,34.1664,4.65,93,100,1.61,RU,1682013600
381,amalapuram,16.5833,82.0167,26.46,90,1,0.92,IN,1682013600
382,la'ie,21.6477,-157.9253,23.17,86,2,2.34,US,1682013600
383,bathsheba,13.2167,-59.5167,28.34,78,75,7.16,BB,1682013600
384,tazacorte,28.629,-17.9293,19.16,79,75,3.64,ES,1682013600
385,marco island,25.9363,-81.7157,28.39,55,1,3.69,US,1682013600
386,kamaishi,39.2667,141.8833,13.18,80,99,3.93,JP,1682013600
387,karachi,24.9056,67.0822,26.9,57,6,5.51,PK,1682013600
388,karlshamn,56.1706,14.8619,15.27,56,0,4.45,SE,1682013600
389,sihanoukville,10.6093,103.5296,28.71,89,40,1.48,KH,1682013600
390,fort bragg,35.139,-79.006,29.18,30,0,3.72,US,1682013600
391,severo-yeniseyskiy,60.3725,93.0408,-18.24,100,89,1.81,RU,1682013600
392,hasaki,35.7333,140.8333,18.26,82,48,8.4,JP,1682013600
393,beledweyne,4.7358,45.2036,32.66,43,49,5.4,SO,1682013600
394,malvan,16.0667,73.4667,27.51,78,3,2.5,IN,1682013600
395,iwaki,37.05,140.8833,16.16,94,5,2.76,JP,1682013600
396,vilhena,-12.7406,-60.1458,25.12,78,75,1.11,BR,1682013600
397,suwa,36.038,138.1131,12.75,88,54,0.69,JP,1682013600
398,shenjiamen,29.9576,122.298,15.43,93,75,5.55,CN,1682013600
399,sann,26.0418,68.1378,29.95,21,1,6.67,PK,1682013600
400,utrik,11.2278,169.8474,26.1,81,100,6.68,MH,1682013600
401,yauya,-8.9833,-77.3,11.99,77,98,1.73,PE,1682013600
402,qom,34.6401,50.8764,25.13,17,5,3.33,IR,1682013600
403,makurazaki,31.2667,130.3167,17.18,86,100,4.76,JP,1682013600
404,akureyri,65.6835,-18.0878,15.96,39,0,3.4,IS,1682013600
405,kijang,35.2442,129.2139,18.22,76,100,2.82,KR,1682013600
406,chibougamau,49.9168,-74.3659,-1.89,68,100,4.45,CA,1682013600
407,satuek,15.297,103.2919,32.27,58,53,6.0,TH,1682013600
408,lihue,21.9789,-159.3672,22.33,94,20,1.9,US,1682013600
409,sandnessjoen,66.0217,12.6316,6.45,91,75,5.14,NO,1682013600
410,psachna,38.5833,23.6333,18.18,77,12,1.92,GR,1682013600
411,celano,42.0855,13.5398,11.88,70,34,0.47,IT,1682013600
412,pontes e lacerda,-15.2261,-59.3353,22.7,80,99,2.88,BR,1682013600
413,hailar,49.2,119.7,-4.59,35,27,9.29,CN,1682013600
414,port saint john's,-31.6229,29.5448,23.38,69,48,9.23,ZA,1682013600
415,doctor alberto oviedo mota,32.2275,-115.1697,27.06,8,0,5.63,MX,1682013600
416,moscow,55.7522,37.6156,14.9,47,59,2.66,RU,1682013600
417,baissa,7.2333,10.6333,22.66,95,99,3.48,NG,1682013600
418,vylkove,45.4021,29.586,9.79,88,100,4.94,UA,1682013600
419,cedeira,43.6797,-8.0209,13.54,78,86,1.09,ES,1682013600
420,paracuru,-3.41,-39.0306,28.95,75,98,3.53,BR,1682013600
421,greymouth,-42.4667,171.2,15.96,98,100,3.2,NZ,1682013600
422,aasiaat,68.7098,-52.8699,-6.28,79,56,3.8,GL,1682013600
423,fale old settlement,-9.3852,-171.2468,28.1,75,40,2.24,TK,1682013600
424,feijo,-8.1642,-70.3536,27.45,89,100,1.4,BR,1682013600
425,pemangkat,1.1667,108.9667,25.52,83,82,1.23,ID,1682013600
426,sete lagoas,-19.4658,-44.2467,26.49,42,19,3.75,BR,1682013600
427,malango,-2.9627,119.9001,19.77,98,100,0.62,ID,1682013600
428,orshanka,56.9161,47.8933,8.4,49,73,1.01,RU,1682013600
429,hithadhoo,-0.6,73.0833,28.26,74,99,2.63,MV,1682013600
430,rio gallegos,-51.6226,-69.2181,12.49,76,75,6.84,AR,1682013600
431,kerikeri,-35.2268,173.9474,19.95,91,100,5.5,NZ,1682013600
432,ghadamis,30.1337,9.5007,30.79,7,30,6.04,LY,1682013600
433,vernon,50.2581,-119.2691,11.19,55,10,2.24,CA,1682013600
434,maintirano,-18.0667,44.0167,26.73,80,76,2.7,MG,1682013600
435,justo daract,-33.8594,-65.1828,27.21,26,0,7.35,AR,1682013600
436,pajok,3.8651,32.4821,23.85,70,100,2.12,SS,1682013600
437,praia da vitoria,38.7333,-27.0667,18.14,63,40,9.73,PT,1682013600
438,kailua-kona,19.6406,-155.9956,24.43,82,0,2.21,US,1682013600
439,aweil,8.7682,27.4002,35.43,15,35,1.67,SS,1682013600
440,palmas,-10.2128,-48.3603,31.93,51,40,0.33,BR,1682013600
441,pariaman,-0.619,100.12,25.61,87,100,1.57,ID,1682013600
442,coquimbo,-29.9533,-71.3436,17.91,82,100,3.12,CL,1682013600
443,yigo village,13.5361,144.8886,25.73,75,40,6.94,GU,1682013600
444,ilhabela,-23.7781,-45.3581,21.89,64,57,5.05,BR,1682013600
445,godech,43.015,23.0442,12.01,87,44,1.34,BG,1682013600
446,luanda,-8.8368,13.2343,26.67,83,75,0.89,AO,1682013600
447,bulungu,-4.55,18.6,22.94,93,95,3.22,CD,1682013600
448,puerto deseado,-47.7503,-65.8938,18.62,40,23,8.79,AR,1682013600
449,yongbyon,39.8133,125.8042,8.4,26,55,5.16,KP,1682013600
450,novomikhaylovskiy,44.2581,38.8578,11.12,94,100,1.56,RU,1682013600
451,priob'ye,62.5206,65.5964,-1.33,99,95,2.42,RU,1682013600
452,colares,38.7992,-9.4469,17.98,68,20,3.35,PT,1682013600
453,talodi,10.6325,30.3797,34.14,7,2,2.3,SD,1682013600
454,victoria,22.2855,114.1577,24.77,95,61,1.91,HK,1682013600
455,ranot,7.7777,100.3213,27.85,75,100,5.03,TH,1682013600
456,xucheng,20.35,110.1288,24.45,83,37,3.7,CN,1682013600
457,kimbe,-5.5502,150.1429,24.13,93,99,1.5,PG,1682013600
458,cold springs,39.6802,-119.9766,8.4,42,0,0.9,US,1682013600
459,guane,22.2025,-84.0875,31.8,44,14,4.32,CU,1682013600
460,silkeborg,56.1697,9.5451,15.18,62,4,4.56,DK,1682013600
461,taco pozo,-25.6167,-63.2833,27.18,30,0,2.78,AR,1682013600
462,ust-tsilma,65.441,52.1498,0.09,98,100,2.42,RU,1682013600
463,placido de castro,-10.3353,-67.1856,25.39,97,100,2.76,BR,1682013600
464,monguno,12.6786,13.6079,33.53,16,24,2.95,NG,1682013600
465,palikir - national government center,6.9248,158.1611,27.5,94,75,6.08,FM,1682013600
466,bondoukou,8.0333,-2.8,32.15,42,74,1.92,CI,1682013600
467,ishigaki,24.3448,124.1572,23.18,88,100,5.5,JP,1682013600
468,kirensk,57.7853,108.1119,-7.96,93,100,1.62,RU,1682013600
469,shanhecun,44.7,127.2,2.95,12,82,8.24,CN,1682013600
470,lewiston orchards,46.3804,-116.9754,8.35,66,0,1.36,US,1682013600
471,maceio,-9.6658,-35.7353,32.69,66,40,6.42,BR,1682013600
472,ar rumaythah,31.5263,45.2025,30.6,15,63,2.54,IQ,1682013600
473,namtsy,62.7161,129.6658,-10.97,94,100,2.1,RU,1682013600
474,trosa,58.8962,17.5481,13.23,56,22,2.21,SE,1682013600
475,vila velha,-20.3297,-40.2925,25.53,85,40,5.67,BR,1682013600
476,contamana,-7.3333,-75.0167,29.73,64,99,0.61,PE,1682013600
477,papao,-17.75,-149.55,28.09,81,100,10.62,PF,1682013600
478,masuguru,-11.3667,38.4167,23.47,90,90,1.51,TZ,1682013600
479,matasari,44.85,23.0833,12.25,70,72,2.07,RO,1682013600
480,robinson,31.4677,-97.1147,25.54,80,40,5.59,US,1682013600
481,qamdo,31.1667,97.2333,3.51,43,45,2.79,CN,1682013600
482,liaoyuan,42.9036,125.1358,4.89,13,94,5.05,CN,1682013600
483,pudozh,61.8099,36.5345,1.43,100,100,0.53,RU,1682013600
484,puerto aysen,-45.4,-72.7,15.77,82,40,1.83,CL,1682013600
485,santiago juxtlahuaca,17.3333,-98.0167,28.28,35,44,2.0,MX,1682013600
486,antofagasta,-23.65,-70.4,21.03,65,45,3.68,CL,1682013600
487,el granada,37.5027,-122.4694,13.69,69,0,3.74,US,1682013600
488,mahibadhoo,3.7833,72.9667,28.69,67,9,0.82,MV,1682013600
489,touros,-5.1989,-35.4608,29.37,63,67,5.43,BR,1682013600
490,auki,-8.7676,160.7034,24.77,88,75,1.09,SB,1682013600
491,klyuchi,52.2667,79.1667,-3.55,77,2,2.01,RU,1682013600
492,vernal,40.4555,-109.5287,3.34,44,0,2.51,US,1682013600
493,gundorovskiy,46.7805,41.8968,14.06,54,100,3.94,RU,1682013600
494,west end,26.6833,-78.9667,25.99,73,8,7.44,BS,1682013600
495,as sulayyil,20.4607,45.5779,29.41,35,27,4.51,SA,1682013600
496,vilyuysk,63.7553,121.6247,-10.45,96,94,2.63,RU,1682013600
497,crane,31.3974,-102.3501,25.86,15,7,5.04,US,1682013600
498,qianjiang,30.4151,112.8859,23.12,70,68,2.78,CN,1682013600
499,sao francisco de paula,-29.4481,-50.5836,14.51,50,8,2.63,BR,1682013600
500,barah,13.7,30.3667,30.3,7,0,4.92,SD,1682013600
501,tanumah,27.1,44.1333,28.11,24,9,3.47,SA,1682013600
502,dumai,1.6833,101.45,24.48,95,79,1.18,ID,1682013600
503,araguaina,-7.1911,-48.2072,30.17,64,68,0.53,BR,1682013600
504,morondava,-20.2833,44.2833,26.62,79,14,3.54,MG,1682013600
505,la toma,-33.0526,-65.6238,22.5,35,0,9.64,AR,1682013600
506,hoemul-li,41.4339,129.67,8.61,29,100,4.67,KP,1682013600
507,gilgit,35.9221,74.3087,11.72,82,97,1.01,PK,1682013600
508,camaqua,-30.8511,-51.8122,21.43,35,0,2.52,BR,1682013600
509,mugia,43.1041,-9.2179,16.06,75,100,3.92,ES,1682013600
510,khovd,48.0056,91.6419,-3.18,30,78,2.55,MN,1682013600
511,andergrove,-21.0833,149.1833,23.01,71,12,6.53,AU,1682013600
512,agadez,19.75,10.25,31.41,10,40,3.11,NE,1682013600
513,yuzhno-kurilsk,44.0306,145.8556,5.74,95,100,3.7,RU,1682013600
514,niafunke,15.9322,-3.9906,39.31,10,44,2.92,ML,1682013600
515,yaren,-0.5472,166.916,28.18,76,100,4.47,NR,1682013600
516,dwarka,22.2394,68.9678,26.81,78,4,6.89,IN,1682013600
517,verkh-chebula,56.0308,87.6218,-1.37,96,100,5.11,RU,1682013600
518,comodoro rivadavia,-45.8667,-67.5,20.68,39,0,3.9,AR,1682013600
519,polyarnyy,69.1989,33.4478,3.15,99,99,9.42,RU,1682013600
520,jinzhou,41.1078,121.1417,9.44,10,100,2.42,CN,1682013600
521,igarka,67.4667,86.5833,-9.86,96,88,3.23,RU,1682013600
522,corinto,37.9407,22.9573,17.72,72,25,0.41,GR,1682013600
523,magadan,59.5667,150.8,1.41,85,100,8.31,RU,1682013600
524,gadzhiyevo,69.2551,33.3362,2.91,99,99,9.82,RU,1682013600
525,buala,-8.145,159.5921,26.0,82,82,0.5,SB,1682013600
526,eyl,7.9803,49.8164,28.31,68,41,4.68,SO,1682013600
527,sundargarh,22.1167,84.0333,29.71,26,60,1.88,IN,1682013600
528,northam,51.0333,-4.2167,13.7,72,20,5.4,GB,1682013600
529,geraldton,-28.7667,114.6,20.84,58,68,5.03,AU,1682013600
530,manokwari,-0.8667,134.0833,25.67,81,100,1.7,ID,1682013600
531,inhambane,-23.865,35.3833,24.99,73,20,2.85,MZ,1682013600
532,burley,42.5357,-113.7928,5.44,55,0,8.32,US,1682013600
533,tokar,18.4254,37.729,27.41,71,1,3.12,SD,1682013600
534,bubaque,11.2833,-15.8333,25.58,72,97,7.94,GW,1682013600
535,dinalupihan,14.8732,120.4651,27.01,83,9,1.05,PH,1682013600
536,peniche,39.3558,-9.3811,18.45,68,24,2.78,PT,1682013600
537,sake,-1.5736,29.045,18.22,94,98,0.27,CD,1682013600
538,djambala,-2.5447,14.7533,21.46,89,100,2.64,CG,1682013600
539,moroto,2.5345,34.6666,24.77,46,100,5.22,UG,1682013600
540,'anat al qadimah,34.4659,41.9331,24.02,44,54,3.63,IQ,1682013600
541,wenling,28.3669,121.36,15.89,92,3,3.23,CN,1682013600
542,shentala,54.45,51.4833,10.47,47,88,1.79,RU,1682013600
543,sorokino,53.75,84.9167,-4.01,85,100,4.31,RU,1682013600
544,lansdowne,39.9382,-75.2719,23.66,44,20,0.66,US,1682013600
545,port augusta,-32.5,137.7667,13.8,70,0,2.08,AU,1682013600
546,mar del plata,-38.0023,-57.5575,21.24,54,0,3.82,AR,1682013600
547,piton saint-leu,-21.2196,55.3151,24.24,78,0,2.19,RE,1682013600
548,general villegas,-35.0328,-63.0125,26.19,29,7,6.31,AR,1682013600
549,chone,-0.6833,-80.1,27.18,82,100,0.71,EC,1682013600
550,road town,18.4167,-64.6167,29.02,58,40,7.05,VG,1682013600
551,inirida,3.8653,-67.9239,31.19,58,99,0.61,CO,1682013600
552,borovskoy,53.8,64.15,6.09,80,49,5.69,KZ,1682013600
553,al jawf,29.5,38.75,23.82,32,61,4.87,SA,1682013600
554,san fernando,15.0286,120.6898,27.85,82,5,1.53,PH,1682013600
